City_ID,City,Country,Lat,Lng,Max Temp,Humidity,Cloudiness,Wind Speed,Current Description
0,Ribeira Grande,PT,38.5167,-28.7,64.8,94,75,13.0,light intensity drizzle
1,Jamestown,US,42.097,-79.2353,28.02,49,75,13.8,broken clouds
2,Castro,BR,-24.7911,-50.0119,69.84,63,15,4.7,few clouds
3,Mahebourg,MU,-20.4081,57.7,70.09,83,20,3.44,few clouds
4,Provideniya,RU,64.3833,-173.3,25.56,84,100,6.11,overcast clouds
5,Barra Do Corda,BR,-5.5,-45.25,73.26,96,100,4.32,moderate rain
6,Bluff,NZ,-46.6,168.3333,58.8,83,64,8.95,broken clouds
7,Shingu,JP,33.7333,135.9833,62.47,90,97,17.87,light rain
8,Rikitea,PF,-23.1203,-134.9692,71.08,67,93,9.28,overcast clouds
9,Saint-Philippe,RE,-21.3585,55.7679,71.19,79,24,8.72,few clouds
10,Atuona,PF,-9.8,-139.0333,77.09,74,10,10.89,clear sky
11,Cherskiy,RU,68.75,161.3,-9.69,97,100,13.2,light snow
12,Tikapur,NP,28.5,81.1333,58.98,77,0,2.86,clear sky
13,Kalmunai,LK,7.4167,81.8167,75.27,88,100,11.16,overcast clouds
14,Hauterive,FR,46.0901,3.4459,45.36,85,94,4.12,overcast clouds
15,Acapetahua,MX,15.2833,-92.7,86.47,61,17,4.38,light rain
16,Nizwa,OM,22.9333,57.5333,71.26,46,0,3.8,clear sky
17,Nanortalik,GL,60.1432,-45.2371,30.56,82,100,10.27,overcast clouds
18,Vaini,TO,-21.2,-175.2,77.07,71,94,6.4,overcast clouds
19,Punta Arenas,CL,-53.15,-70.9167,51.91,37,20,28.77,few clouds
20,Ushuaia,AR,-54.8,-68.3,47.86,57,40,27.63,scattered clouds
21,Torbay,CA,47.6666,-52.7314,36.27,93,75,9.22,light rain
22,Hobart,AU,-42.8794,147.3294,55.26,88,100,10.36,overcast clouds
23,Kostomuksha,RU,64.571,30.5767,19.8,98,53,1.14,broken clouds
24,Manama,BH,26.2154,50.5832,76.98,57,0,19.57,clear sky
25,Hasaki,JP,35.7333,140.8333,52.21,59,100,10.76,overcast clouds
26,Quarai,BR,-30.3875,-56.4514,95.81,16,10,15.82,clear sky
27,Vostok,RU,46.4856,135.8833,23.43,89,100,5.06,light snow
28,Busselton,AU,-33.65,115.3333,54.25,81,76,7.38,broken clouds
29,Hobyo,SO,5.3505,48.5268,80.73,74,2,6.69,clear sky
30,Shu,KZ,43.5983,73.7614,41.77,90,52,8.34,broken clouds
31,Dwarka,IN,22.2394,68.9678,77.27,51,0,7.16,clear sky
32,Cap-Aux-Meules,CA,47.3821,-61.8597,30.25,64,40,14.97,scattered clouds
33,Flinders,AU,-34.5833,150.8552,75.06,64,0,7.0,clear sky
34,Tuatapere,NZ,-46.1333,167.6833,58.46,78,83,2.82,broken clouds
35,Villamontes,BO,-21.25,-63.5,105.13,16,32,12.28,scattered clouds
36,Salalah,OM,17.0151,54.0924,75.29,53,0,2.3,clear sky
37,Bredasdorp,ZA,-34.5322,20.0403,56.53,80,3,4.23,clear sky
38,Paracuru,BR,-3.41,-39.0306,80.11,75,31,11.99,scattered clouds
39,Gornopravdinsk,RU,60.05,69.9,8.04,92,95,9.51,overcast clouds
40,Tadine,NC,-21.55,167.8833,74.53,85,100,11.54,overcast clouds
41,Namibe,AO,-15.1961,12.1522,71.62,73,75,8.01,light rain
42,Havre-Saint-Pierre,CA,50.2334,-63.5986,28.4,73,0,10.36,clear sky
43,Faya,SA,18.3851,42.4509,59.11,67,18,2.91,few clouds
44,Khasan,RU,42.4308,130.6434,49.17,83,97,12.57,overcast clouds
45,San Policarpo,PH,12.1791,125.5072,78.21,85,100,1.12,moderate rain
46,Salekhard,RU,66.53,66.6019,-9.99,95,13,2.26,few clouds
47,Tsumeb,NA,-19.2333,17.7167,86.32,25,98,2.13,overcast clouds
48,Greenfield,US,42.9614,-88.0126,24.46,68,100,21.85,overcast clouds
49,Surab,PK,28.4914,66.2585,53.6,40,99,7.72,overcast clouds
50,Sinnamary,GF,5.3833,-52.95,80.74,77,82,10.2,broken clouds
51,Ponta Do Sol,PT,32.6667,-17.1,66.83,64,67,7.94,broken clouds
52,Carnarvon,AU,-24.8667,113.6333,64.15,59,0,23.4,clear sky
53,Tangkak,MY,2.2673,102.5453,77.16,96,100,3.49,overcast clouds
54,Port Alfred,ZA,-33.5906,26.891,56.17,92,2,1.99,clear sky
55,Pinyug,RU,60.251,47.7842,9.64,97,5,1.23,clear sky
56,Puerto Ayora,EC,-0.7393,-90.3518,80.56,96,92,7.0,overcast clouds
57,Mataura,NZ,-46.1927,168.8643,58.48,69,89,4.16,overcast clouds
58,Lebu,CL,-37.6167,-73.65,58.71,69,67,17.29,broken clouds
59,Tezu,IN,27.9167,96.1667,61.3,49,39,4.29,scattered clouds
60,Albany,US,42.6001,-73.9662,36.57,46,93,1.01,overcast clouds
61,Kaitangata,NZ,-46.2817,169.8464,54.48,89,100,5.86,overcast clouds
62,Lagoa,PT,39.05,-27.9833,63.73,92,79,18.5,broken clouds
63,Benguela,AO,-12.5763,13.4055,76.91,76,39,6.35,light rain
64,Barrow,US,71.2906,-156.7887,28.42,64,100,20.71,overcast clouds
65,Roald,NO,62.5833,6.1333,38.34,69,0,6.91,clear sky
66,Upernavik,GL,72.7868,-56.1549,14.59,87,100,10.0,overcast clouds
67,Alofi,NU,-19.0595,-169.9187,82.29,65,10,4.61,clear sky
68,Arraial Do Cabo,BR,-22.9661,-42.0278,73.36,64,40,8.05,scattered clouds
69,Mar Del Plata,AR,-38.0023,-57.5575,71.62,90,0,8.05,clear sky
70,Nerchinsk,RU,51.9833,116.5833,4.71,93,100,3.36,overcast clouds
71,Bethel,US,41.3712,-73.414,37.76,47,0,8.05,clear sky
72,Igarka,RU,67.4667,86.5833,-0.36,94,100,9.4,overcast clouds
73,Hilo,US,19.7297,-155.09,82.26,70,40,5.75,light rain
74,Calama,CL,-22.4667,-68.9333,75.69,11,0,25.32,clear sky
75,Mareeba,AU,-17.0,145.4333,75.92,94,72,3.11,broken clouds
76,Muromtsevo,RU,56.3724,75.2418,-1.73,91,8,8.03,clear sky
77,Kununurra,AU,-15.7667,128.7333,82.38,83,100,4.61,overcast clouds
78,Mahibadhoo,MV,3.7833,72.9667,79.9,80,76,11.63,broken clouds
79,Cayenne,GF,4.9333,-52.3333,82.44,78,0,2.3,clear sky
80,Tiksi,RU,71.6872,128.8694,-5.93,97,100,6.78,overcast clouds
81,Thompson,CA,55.7435,-97.8558,1.56,78,100,8.05,light snow
82,Tuktoyaktuk,CA,69.4541,-133.0374,26.6,93,100,14.97,light snow
83,Ilulissat,GL,69.2167,-51.1,13.55,77,29,4.63,scattered clouds
84,Norman Wells,CA,65.282,-126.8329,14.04,85,75,0.0,broken clouds
85,Kurchum,KZ,48.5722,83.6542,26.47,95,100,9.13,light snow
86,Hami,CN,42.8,93.45,37.58,48,100,4.92,overcast clouds
87,Huangchuan,CN,32.1272,115.0394,53.22,82,0,1.07,clear sky
88,Port Elizabeth,ZA,-33.918,25.5701,57.09,85,0,10.02,clear sky
89,Bonfim,BR,3.0833,-59.95,86.25,60,99,2.82,overcast clouds
90,Pancesti,RO,46.3333,27.0833,36.0,84,100,4.81,light rain
91,El Alto,PE,-4.2714,-81.2147,69.46,71,79,16.15,broken clouds
92,New Norfolk,AU,-42.7826,147.0587,54.91,73,100,4.0,light rain
93,Stanovoye,RU,52.7638,38.3582,29.82,98,100,5.7,light snow
94,Port-Cartier,CA,50.0334,-66.8654,24.75,82,82,6.58,broken clouds
95,Kodiak,US,57.79,-152.4072,40.51,87,100,11.5,moderate rain
96,Maningrida,AU,-12.0667,134.2667,82.35,78,92,1.52,overcast clouds
97,Saskylakh,RU,71.9167,114.0833,-17.48,100,97,1.7,overcast clouds
98,Hay River,CA,60.8156,-115.7999,24.78,46,75,9.22,broken clouds
99,Tasiilaq,GL,65.6145,-37.6368,39.36,69,100,10.76,overcast clouds
100,Sai Buri,TH,6.7013,101.6168,74.97,89,98,5.19,overcast clouds
101,East London,ZA,-33.0153,27.9116,61.41,74,0,11.48,clear sky
102,Kapaa,US,22.0752,-159.319,80.92,76,40,17.27,light rain
103,Georgetown,MY,5.4112,100.3354,78.89,92,20,3.44,few clouds
104,Qaanaaq,GL,77.484,-69.3632,-3.75,58,17,7.43,few clouds
105,Sorland,NO,67.667,12.6934,44.46,56,0,6.73,clear sky
106,Chuy,UY,-33.6971,-53.4616,71.24,77,100,15.35,overcast clouds
107,Saint-Georges,GD,12.0564,-61.7485,83.88,74,20,23.02,few clouds
108,Maniitsoq,GL,65.4167,-52.9,22.12,81,71,8.72,broken clouds
109,Codrington,AU,-38.2667,141.9667,51.39,87,11,16.08,few clouds
110,Najran,SA,17.4924,44.1277,61.45,34,0,0.85,clear sky
111,Skelleftea,SE,64.7507,20.9528,27.0,100,100,4.61,overcast clouds
112,Kavieng,PG,-2.5744,150.7967,82.36,70,92,11.39,overcast clouds
113,Hermanus,ZA,-34.4187,19.2345,53.8,76,6,1.45,clear sky
114,Srednekolymsk,RU,67.45,153.6833,-21.89,98,84,10.71,broken clouds
115,Spirit River,CA,55.7833,-118.8361,28.83,65,49,5.59,scattered clouds
116,Sitka,US,57.0531,-135.33,48.09,61,75,23.02,broken clouds
117,Balabac,PH,7.9868,117.0645,79.18,84,100,6.04,moderate rain
118,Millbrook,US,32.4799,-86.3619,54.32,49,40,3.44,scattered clouds
119,Umm Lajj,SA,25.0213,37.2685,76.96,65,0,10.04,clear sky
120,Didao,CN,45.3667,130.8,36.39,98,100,8.77,overcast clouds
121,Paamiut,GL,61.994,-49.6678,23.38,77,65,12.06,broken clouds
122,Fortuna,US,40.5982,-124.1573,63.93,47,0,1.01,clear sky
123,Tura,IN,25.5198,90.2201,60.51,53,100,3.22,overcast clouds
124,Aklavik,CA,68.2191,-135.0107,30.2,93,100,8.05,light snow
125,Kilindoni,TZ,-7.9139,39.6668,78.85,81,94,9.1,overcast clouds
126,Marzuq,YE,14.4,46.4667,65.88,54,6,1.68,clear sky
127,Vardo,NO,70.3705,31.1107,37.38,75,100,12.66,overcast clouds
128,Boa Vista,BR,2.8197,-60.6733,78.78,89,40,5.75,light intensity shower rain
129,Nemuro,JP,43.3236,145.575,42.33,65,76,6.38,broken clouds
130,Port Augusta,AU,-32.5,137.7667,58.14,59,4,15.19,clear sky
131,Cabo San Lucas,MX,22.8909,-109.9124,83.61,60,75,6.91,broken clouds
132,Vila Franca Do Campo,PT,37.7167,-25.4333,64.81,86,36,4.68,scattered clouds
133,Nishihara,JP,26.1842,127.7558,74.48,83,40,8.05,scattered clouds
134,Mumbwa,ZM,-14.9783,27.0619,70.57,32,1,3.04,clear sky
135,Tiarei,PF,-17.5333,-149.3333,80.62,88,95,8.01,light rain
136,Richards Bay,ZA,-28.783,32.0377,66.87,79,100,16.93,light rain
137,Nuuk,GL,64.1835,-51.7216,30.81,86,0,4.61,clear sky
138,Nome,US,64.5011,-165.4064,33.87,87,100,0.0,overcast clouds
139,Coahuayana,MX,18.7333,-103.6833,85.87,57,99,6.33,overcast clouds
140,Pleshanovo,RU,52.8333,53.4833,32.13,96,100,10.94,overcast clouds
141,Victoria,HK,22.2855,114.1577,75.38,87,100,5.01,overcast clouds
142,Chokurdakh,RU,70.6333,147.9167,-7.49,97,100,12.24,overcast clouds
143,Clyde River,CA,70.4692,-68.5914,-18.54,94,33,2.57,scattered clouds
144,Clyde,US,41.3042,-82.9752,31.57,47,99,19.93,overcast clouds
145,Pemangkat,ID,1.1667,108.9667,78.49,85,100,9.1,light rain
146,Mackay,AU,-21.15,149.2,82.69,80,100,15.01,overcast clouds
147,Salta,AR,-24.7859,-65.4117,90.57,29,20,17.27,few clouds
148,Taoudenni,ML,22.6783,-3.9836,76.01,11,0,7.27,clear sky
149,Lazaro Cardenas,MX,17.9583,-102.2,83.37,67,53,8.46,broken clouds
150,Trelew,AR,-43.249,-65.3051,68.27,30,0,20.71,clear sky
151,Kaka,TM,37.3482,59.6143,56.79,56,0,0.94,clear sky
152,Wanning,CN,18.8003,110.3967,75.36,91,99,7.94,overcast clouds
153,Price,US,39.5994,-110.8107,41.11,30,0,4.61,clear sky
154,Sibolga,ID,1.7427,98.7792,74.17,92,100,2.01,overcast clouds
155,Narsaq,GL,60.9167,-46.05,26.82,74,100,6.58,overcast clouds
156,Deputatskiy,RU,69.3,139.9,-28.91,97,48,4.76,scattered clouds
157,Port-Gentil,GA,-0.7193,8.7815,80.56,83,100,13.8,light rain
158,Kampene,CD,-3.6,26.6667,65.73,92,33,1.79,scattered clouds
159,Butaritari,KI,3.0707,172.7902,80.85,72,39,18.9,scattered clouds
160,Asosa,ET,10.0667,34.5333,65.5,52,60,3.98,broken clouds
161,Satun,TH,6.8333,100.0,75.2,95,88,1.57,overcast clouds
162,Khatanga,RU,71.9667,102.5,-28.48,97,100,1.52,overcast clouds
163,Rocky Mountain House,CA,52.3668,-114.9188,42.91,24,30,0.0,scattered clouds
164,Sokolac,BA,43.9397,18.8017,40.17,99,100,3.36,moderate rain
165,Naze,JP,28.3667,129.4833,67.12,87,38,12.01,scattered clouds
166,Yantal,RU,56.8471,105.2542,-5.96,99,29,3.22,scattered clouds
167,Ostrovnoy,RU,68.0531,39.5131,25.02,94,64,10.25,broken clouds
168,Korla,CN,41.7597,86.1469,36.54,43,77,7.4,broken clouds
169,Metro,ID,-5.1131,105.3067,73.35,90,100,3.51,overcast clouds
170,Walvis Bay,NA,-22.9575,14.5053,63.55,67,100,5.75,overcast clouds
171,Meulaboh,ID,4.1363,96.1285,75.29,91,100,3.33,overcast clouds
172,Parana,AR,-31.732,-60.5238,98.69,14,50,10.2,scattered clouds
173,Cabra,ES,37.4725,-4.4421,48.18,64,55,1.7,broken clouds
174,Avarua,CK,-21.2078,-159.775,78.85,65,75,10.36,broken clouds
175,Sept-Iles,CA,50.2001,-66.3821,25.05,69,20,9.22,few clouds
176,Xichang,CN,27.8964,102.2634,44.47,72,81,0.72,broken clouds
177,Koslan,RU,63.4564,48.8989,14.14,90,27,8.61,scattered clouds
178,Labuhan,ID,-6.8844,112.2051,78.31,86,71,5.99,broken clouds
179,Pevek,RU,69.7008,170.3133,-13.49,99,98,5.3,overcast clouds
180,The Pas,CA,53.8251,-101.2541,14.02,85,100,10.36,light snow
181,Abalak,RU,58.1286,68.5944,5.16,89,71,9.08,broken clouds
182,Jyvaskyla,FI,62.2415,25.7209,26.13,86,100,8.05,overcast clouds
183,Palmer,US,42.1584,-72.3287,39.45,42,20,14.97,few clouds
184,Dikson,RU,73.5069,80.5464,-15.81,100,92,5.95,overcast clouds
185,Cape Town,ZA,-33.9258,18.4232,61.21,73,0,6.91,clear sky
186,Warrnambool,AU,-38.3833,142.4833,53.02,79,40,20.71,scattered clouds
187,Maceio,BR,-9.6658,-35.7353,78.24,83,0,8.05,clear sky
188,Bambous Virieux,MU,-20.3428,57.7575,70.05,83,20,3.44,few clouds
189,Thaton,MM,16.9206,97.3714,75.15,92,68,2.66,broken clouds
190,Honningsvag,NO,70.9821,25.9704,37.15,81,100,10.36,overcast clouds
191,Roma,US,43.2128,-75.4557,32.95,56,100,8.05,overcast clouds
192,Castilho,BR,-20.8722,-51.4875,93.97,22,40,2.62,scattered clouds
193,Yulara,AU,-25.2406,130.9889,62.98,26,69,12.73,broken clouds
194,Camacha,PT,33.0833,-16.3333,62.02,63,40,12.66,scattered clouds
195,Yerbogachen,RU,61.2767,108.0108,-8.95,100,84,4.25,broken clouds
196,Fethiye,TR,36.6217,29.1164,58.87,67,0,4.0,clear sky
197,Faanui,PF,-16.4833,-151.75,77.81,80,52,7.7,light rain
198,Klaksvik,FO,62.2266,-6.589,49.12,88,97,39.06,light rain
199,Henties Bay,NA,-22.116,14.2845,62.87,75,100,7.38,overcast clouds
200,Kieta,PG,-6.2167,155.6333,81.01,81,99,5.99,overcast clouds
201,Dinar,TR,38.065,30.1656,51.76,92,4,8.39,clear sky
202,Teahupoo,PF,-17.8333,-149.2667,75.16,88,99,11.01,light rain
203,Hithadhoo,MV,-0.6,73.0833,80.55,80,51,10.13,broken clouds
204,Shihezi,CN,44.3,86.0333,31.05,76,49,1.52,scattered clouds
205,Ghorawal,IN,24.7667,82.7833,56.25,50,1,1.83,clear sky
206,Katsuura,JP,35.1333,140.3,59.43,66,100,10.42,overcast clouds
207,Saldanha,ZA,-33.0117,17.9442,57.25,76,0,13.18,clear sky
208,Marsh Harbour,BS,26.5412,-77.0636,77.09,73,100,16.08,overcast clouds
209,Atar,MR,20.5169,-13.0499,72.21,37,0,10.11,clear sky
210,Lingao,CN,19.9103,109.6859,73.71,90,87,7.78,overcast clouds
211,Leningradskiy,RU,69.3833,178.4167,-9.44,98,100,8.9,overcast clouds
212,Lata,PT,40.1629,-8.3327,55.81,92,100,1.88,overcast clouds
213,Manggar,ID,-2.8833,108.2667,78.21,89,96,7.14,light rain
214,Beyla,GN,8.6833,-8.6333,70.95,49,100,1.63,overcast clouds
215,Masterton,NZ,-40.9597,175.6575,60.89,56,19,6.78,few clouds
216,Novorzhev,RU,57.0294,29.3338,24.17,92,100,8.05,light snow
217,Concordia,AR,-31.393,-58.0209,95.07,23,40,9.22,scattered clouds
218,Kargil,IN,34.5667,76.1,20.93,82,58,5.39,light snow
219,Vila Do Maio,CV,15.1333,-23.2167,77.79,71,99,22.01,overcast clouds
220,Mehamn,NO,71.0357,27.8492,37.35,81,75,6.91,broken clouds
221,Noumea,NC,-22.2763,166.4572,79.0,99,42,6.98,scattered clouds
222,Chastyye,RU,57.2888,54.9728,11.1,92,12,2.73,few clouds
223,Nhulunbuy,AU,-12.2333,136.7667,79.41,83,100,1.14,overcast clouds
224,Magdalena,PH,14.1999,121.429,75.34,96,100,4.23,overcast clouds
225,Vuktyl,RU,63.8567,57.3094,20.48,95,100,9.55,light snow
226,Severo-Kurilsk,RU,50.6789,156.125,32.45,76,96,9.53,overcast clouds
227,Zhanakorgan,KZ,43.9098,67.2495,45.46,84,99,5.03,overcast clouds
228,Petropavlovka,RU,50.6114,105.3196,0.9,93,30,3.22,scattered clouds
229,Haines Junction,CA,60.7522,-137.5108,10.35,85,100,0.0,overcast clouds
230,Barcelona,ES,41.3888,2.159,55.54,66,20,6.91,few clouds
231,Dong Hoi,VN,17.4833,106.6,74.71,92,100,6.53,overcast clouds
232,Ipixuna,BR,-1.7625,-48.8043,79.99,75,99,5.5,overcast clouds
233,Yellowknife,CA,62.456,-114.3525,19.92,73,100,8.05,overcast clouds
234,Lamesa,US,32.7376,-101.951,43.52,32,93,9.01,overcast clouds
235,Comodoro Rivadavia,AR,-45.8667,-67.5,69.66,16,0,23.02,clear sky
236,Praia Da Vitoria,PT,38.7333,-27.0667,64.76,88,20,8.63,few clouds
237,Onega,RU,63.9061,38.1404,19.31,90,61,3.91,broken clouds
238,Edson,CA,53.5835,-116.4356,39.34,30,0,8.05,clear sky
239,Tazovskiy,RU,67.4667,78.7,-24.2,100,82,4.97,broken clouds
240,Camp Springs,US,38.804,-76.9066,46.36,41,0,13.8,clear sky
241,Imbituba,BR,-28.24,-48.6703,71.06,71,0,16.55,clear sky
242,Nikolskoye,RU,59.7035,30.7861,22.91,79,94,7.61,overcast clouds
243,Airai,TL,-8.9266,125.4092,62.06,94,100,2.04,overcast clouds
244,Port Blair,IN,11.6667,92.75,78.84,83,20,2.3,mist
245,Bengkulu,ID,-3.8004,102.2655,73.92,91,96,5.39,overcast clouds
246,Tarko-Sale,RU,64.9225,77.785,-18.2,100,93,6.35,overcast clouds
247,Barkhan,PK,29.8977,69.5256,56.55,42,65,4.14,broken clouds
248,Hofn,IS,64.2539,-15.2082,44.94,90,100,30.8,overcast clouds
249,Muros,ES,42.7762,-9.0603,56.08,96,100,10.98,light rain
250,Manuk Mangkaw,PH,4.8,119.85,83.43,75,99,15.43,overcast clouds
251,Kribi,CM,2.95,9.9167,76.91,90,99,7.27,overcast clouds
252,Talaya,RU,61.3833,152.75,-12.23,85,100,1.34,overcast clouds
253,Carutapera,BR,-1.195,-46.02,79.23,75,16,7.47,few clouds
254,Bikaner,IN,28.0167,73.3,66.29,25,100,7.61,overcast clouds
255,Derventa,BA,44.9772,17.9103,46.15,90,100,13.06,moderate rain
256,Bicas,BR,-21.7253,-43.0594,65.7,81,100,5.1,overcast clouds
257,Orlik,RU,52.5178,99.825,-10.88,95,16,2.24,few clouds
258,Sistranda,NO,63.7256,8.834,35.56,55,0,17.76,clear sky
259,Nguru,NG,12.8791,10.4526,74.55,20,8,10.0,clear sky
260,The Valley,AI,18.217,-63.0578,82.26,74,40,12.66,scattered clouds
261,La Asuncion,VE,11.0333,-63.8628,71.33,100,67,18.41,light rain
262,Chimbote,PE,-9.0853,-78.5783,67.51,74,52,8.84,broken clouds
263,Komsomolskiy,UZ,40.4272,71.7189,45.32,87,100,4.61,fog
264,Umm Kaddadah,SD,13.6017,26.6876,67.86,21,3,12.41,clear sky
265,Santa Luzia,BR,-19.7697,-43.8514,78.94,66,20,6.91,few clouds
266,Fare,PF,-16.7,-151.0167,78.39,79,52,8.28,light rain
267,Akyab,MM,20.15,92.9,76.48,78,71,4.41,broken clouds
268,Biltine,TD,14.5333,20.9167,74.88,19,4,8.93,clear sky
269,Medicine Hat,CA,50.0501,-110.6683,31.21,60,100,14.97,overcast clouds
270,Santo Tomas,PH,14.1079,121.1414,75.56,96,100,3.69,light rain
271,Luderitz,NA,-26.6481,15.1594,62.91,67,99,24.85,overcast clouds
272,Erenhot,CN,43.6475,111.9767,23.0,35,100,1.79,overcast clouds
273,Iskateley,RU,67.6803,53.1512,34.07,97,100,13.78,overcast clouds
274,Te Anau,NZ,-45.4167,167.7167,59.2,80,100,0.83,overcast clouds
275,Key Largo,US,25.0865,-80.4473,79.0,80,100,20.71,overcast clouds
276,Dubbo,AU,-32.25,148.6167,66.33,63,0,17.27,clear sky
277,Ambilobe,MG,-13.2,49.05,73.69,79,31,3.31,scattered clouds
278,Samoded,RU,63.6083,40.5111,15.71,93,54,3.62,broken clouds
279,Aykhal,RU,66.0,111.5,-9.92,96,35,10.94,scattered clouds
280,Uglegorsk,RU,49.0833,142.0333,30.22,80,100,9.26,overcast clouds
281,Fairbanks,US,64.8378,-147.7164,22.23,84,100,3.44,overcast clouds
282,Pochutla,MX,15.7432,-96.4661,85.82,69,40,5.61,light rain
283,Laguna,US,38.421,-121.4238,66.18,28,0,1.01,clear sky
284,San Patricio,US,28.017,-97.5169,48.83,86,100,20.22,moderate rain
285,Taywarah,AF,33.35,64.4167,31.82,60,25,3.42,scattered clouds
286,Lukovetskiy,RU,64.2956,41.9211,17.94,94,92,4.38,overcast clouds
287,Strezhevoy,RU,60.7333,77.5889,3.24,92,100,11.45,overcast clouds
288,Tornio,FI,65.8481,24.1466,24.82,84,98,4.54,overcast clouds
289,Geraldton,AU,-28.7667,114.6,48.61,93,0,5.75,clear sky
290,Coihaique,CL,-45.5752,-72.0662,52.41,71,75,13.8,light intensity shower rain
291,College,US,64.8569,-147.8028,22.21,83,75,3.44,broken clouds
292,Rudnogorsk,RU,57.2639,103.7519,-5.57,100,82,2.35,broken clouds
293,Kikwit,CD,-5.041,18.8162,70.95,95,96,1.92,overcast clouds
294,Leshukonskoye,RU,64.8989,45.7622,21.81,94,44,8.57,scattered clouds
295,Yarada,IN,17.65,83.2667,72.21,56,100,8.21,overcast clouds
296,Vestmannaeyjar,IS,63.4427,-20.2734,46.58,77,99,18.01,overcast clouds
297,Ancud,CL,-41.8697,-73.8203,53.42,63,52,8.99,light rain
298,Palana,RU,59.1167,159.9667,13.39,90,98,12.3,overcast clouds
299,Nara,JP,34.6851,135.8049,54.5,85,100,6.78,overcast clouds
300,Seoul,KR,37.5683,126.9778,49.44,87,75,2.3,broken clouds
301,Shubarkuduk,KZ,49.1447,56.4872,36.1,76,91,5.21,overcast clouds
302,Reconquista,AR,-29.15,-59.65,99.72,12,44,12.55,scattered clouds
303,Fuerte Olimpo,PY,-21.0415,-57.8738,93.18,20,1,3.78,clear sky
304,Bardiyah,LY,31.7561,25.0865,69.55,36,39,11.27,scattered clouds
305,Sioux Lookout,CA,50.1001,-91.917,5.07,66,75,14.97,broken clouds
306,Gimli,CA,50.6336,-96.9907,10.42,56,100,6.91,overcast clouds
307,Adrar,MR,20.5022,-10.0711,68.77,34,0,9.91,clear sky
308,Pacific Grove,US,36.6177,-121.9166,71.28,35,0,6.91,clear sky
309,Illela,NG,13.7292,5.2975,76.78,21,99,9.22,overcast clouds
310,Puerto Leguizamo,CO,-0.1934,-74.7819,81.41,77,99,1.99,overcast clouds
311,Pisco,PE,-13.7,-76.2167,69.85,68,0,18.41,clear sky
312,Ngunguru,NZ,-35.6167,174.5,67.93,65,3,15.61,clear sky
313,Khani,GE,41.9563,42.9566,47.77,70,86,5.84,overcast clouds
314,Sevsk,RU,52.1491,34.4926,20.37,96,87,12.95,overcast clouds
315,Aleksandrovka,UA,46.8383,32.7612,39.92,85,49,6.22,scattered clouds
316,Okhotsk,RU,59.3833,143.3,4.21,72,99,6.87,overcast clouds
317,Verkhnevilyuysk,RU,63.4453,120.3167,-7.53,98,95,4.88,overcast clouds
318,Mount Gambier,AU,-37.8333,140.7667,51.44,74,12,14.16,few clouds
319,Cockburn Town,TC,21.4612,-71.1419,80.56,69,75,14.97,broken clouds
320,Dudinka,RU,69.4058,86.1778,-3.39,99,97,4.56,overcast clouds
321,Poum,NC,-20.2333,164.0167,76.84,78,74,5.82,broken clouds
322,Joshimath,IN,30.5667,79.5667,47.05,42,77,5.93,broken clouds
323,Karlovac,HR,45.4872,15.5478,43.14,96,100,1.99,moderate rain
324,Santa Rosa,PH,14.3122,121.1114,76.98,93,100,6.24,overcast clouds
325,Moba,CN,33.2288,105.0179,42.4,78,98,5.46,overcast clouds
326,Brae,GB,60.3964,-1.353,46.04,59,94,27.98,overcast clouds
327,Kuytun,RU,54.3419,101.5036,3.74,96,27,4.16,scattered clouds
328,Lavrentiya,RU,65.5833,-171.0,23.81,86,100,5.7,overcast clouds
329,Fort Saint James,CA,54.4333,-124.25,17.82,77,100,1.88,overcast clouds
330,North Platte,US,41.1239,-100.7654,37.29,39,0,11.5,clear sky
331,Coquimbo,CL,-29.9533,-71.3436,65.93,68,75,11.5,broken clouds
332,Port Hardy,CA,50.6996,-127.4199,41.18,70,100,3.44,overcast clouds
333,Asau,RO,46.4333,26.4,33.28,98,100,3.42,light snow
334,Bowen,AU,-20.0167,148.2333,81.64,73,48,12.21,scattered clouds
335,Hatillo,PR,18.4863,-66.8254,83.08,78,85,11.01,overcast clouds
336,Morant Bay,JM,17.8815,-76.4093,85.62,78,67,11.12,broken clouds
337,Gander,CA,48.9682,-54.5906,33.93,59,75,8.05,broken clouds
338,Angoche,MZ,-16.2325,39.9086,77.7,78,4,11.74,clear sky
339,Duluth,US,46.7833,-92.1066,17.56,60,40,25.32,scattered clouds
340,Mahajanga,MG,-15.7167,46.3167,78.82,89,20,3.44,few clouds
341,Fort Nelson,CA,58.8053,-122.7002,26.35,80,99,0.63,overcast clouds
342,Great Bend,US,38.3645,-98.7648,40.03,33,0,9.22,clear sky
343,Bubaque,GW,11.2833,-15.8333,83.66,60,97,11.97,overcast clouds
344,Rawah,IQ,34.4816,41.9093,61.12,51,0,7.27,clear sky
345,Alpena,US,45.0617,-83.4327,26.85,83,100,10.36,overcast clouds
346,Tori,EE,58.4825,24.8152,22.91,89,100,7.09,light snow
347,Nefteyugansk,RU,61.0998,72.6035,8.37,89,100,21.23,overcast clouds
348,Goderich,CA,43.7501,-81.7165,31.91,59,100,27.63,overcast clouds
349,Vanimo,PG,-2.6741,141.3028,80.37,83,96,4.97,overcast clouds
350,Kruisfontein,ZA,-34.0033,24.7314,54.88,91,1,7.67,clear sky
351,Sao Joao Da Barra,BR,-21.6403,-41.0511,75.29,78,27,11.7,scattered clouds
352,Vagay,RU,57.9375,69.0217,6.1,88,59,8.84,broken clouds
353,Bapatla,IN,15.9,80.4667,67.48,69,100,7.14,overcast clouds
354,Luba,GQ,3.4568,8.5547,79.77,82,96,5.1,moderate rain
355,Nizhnyaya Tavda,RU,57.6731,66.1725,8.02,88,76,8.3,broken clouds
356,Lockport,US,41.5895,-88.0578,27.01,58,75,27.63,broken clouds
357,Soyo,AO,-6.1349,12.3689,77.52,79,99,5.61,overcast clouds
358,Luganville,VU,-15.5333,167.1667,84.4,71,19,7.45,few clouds
359,Tarauaca,BR,-8.1614,-70.7656,85.84,63,80,3.65,broken clouds
360,Esperance,AU,-33.8667,121.9,57.85,74,79,14.85,broken clouds
361,Mersing,MY,2.4312,103.8405,75.11,88,40,1.14,scattered clouds
362,Winsum,NL,53.33,6.5208,28.98,90,70,2.73,broken clouds
363,Saint George,US,37.1041,-113.5841,54.43,25,0,3.0,clear sky
364,Merauke,ID,-8.4667,140.3333,81.97,84,100,8.63,overcast clouds
365,Quatre Cocos,MU,-20.2078,57.7625,69.91,72,0,6.49,clear sky
366,Talnakh,RU,69.4865,88.3972,-3.8,95,100,3.89,overcast clouds
367,Mitsamiouli,KM,-11.3847,43.2844,77.81,83,2,10.31,clear sky
368,Husavik,IS,66.0449,-17.3389,44.17,80,90,28.19,overcast clouds
369,Zemio,CF,5.0314,25.1361,71.13,74,99,2.04,overcast clouds
370,Iqaluit,CA,63.7506,-68.5145,-5.31,70,20,16.11,few clouds
371,Nizhnedevitsk,RU,51.5419,38.3657,33.84,95,100,17.13,overcast clouds
372,Lianzhou,CN,24.7811,112.3825,60.75,90,93,2.01,overcast clouds
373,Qazax,AZ,41.0933,45.3661,53.69,52,5,6.42,clear sky
374,Krasnyy Profintern,RU,57.7446,40.435,17.62,82,85,11.48,overcast clouds
375,Setaka,JP,33.15,130.4667,56.23,78,40,4.61,scattered clouds
376,Milkovo,RU,54.7167,158.6167,-0.17,94,88,2.37,overcast clouds
377,Bandarbeyla,SO,9.4942,50.8122,79.34,79,99,19.62,light rain
378,Port Lincoln,AU,-34.7333,135.8667,58.51,61,7,23.11,clear sky
379,Sur,OM,22.5667,59.5289,76.05,61,0,6.89,clear sky
380,Havoysund,NO,70.9963,24.6622,37.63,76,3,6.8,clear sky
381,Turkmenabat,TM,39.0733,63.5786,49.98,100,99,6.91,overcast clouds
382,Tumpat,MY,6.1978,102.171,75.18,100,20,3.44,few clouds
383,Griffith,US,41.5284,-87.4237,26.55,63,100,19.57,overcast clouds
384,Honiara,SB,-9.4333,159.95,84.07,74,80,4.79,broken clouds
385,Kahului,US,20.8947,-156.47,84.97,69,40,25.32,scattered clouds
386,Mwinilunga,ZM,-11.7358,24.4293,62.02,85,56,3.91,broken clouds
387,La Primavera,CO,5.4906,-70.4092,80.15,79,87,4.18,overcast clouds
388,San Cristobal,VE,7.7669,-72.225,75.38,67,45,3.02,scattered clouds
389,Margate,GB,51.3813,1.3862,47.89,88,100,7.67,overcast clouds
390,Mandera,KE,3.9366,41.867,85.37,43,67,12.03,broken clouds
391,Hervey Bay,AU,-25.2986,152.8535,75.94,78,42,20.11,scattered clouds
392,Krasnoselkup,RU,65.7,82.4667,-24.66,100,58,4.36,broken clouds
393,Touros,BR,-5.1989,-35.4608,78.67,79,94,14.34,overcast clouds
394,Waingapu,ID,-9.6567,120.2641,79.02,81,98,2.04,light rain
395,Cloquet,US,46.7216,-92.4594,15.87,65,100,18.41,overcast clouds
396,Grindavik,IS,63.8424,-22.4338,44.55,81,75,6.91,broken clouds
397,Bathsheba,BB,13.2167,-59.5167,83.01,74,20,17.27,few clouds
398,Sisimiut,GL,66.9395,-53.6735,22.46,94,99,13.69,light snow
399,Tateyama,JP,34.9833,139.8667,55.09,67,100,15.61,overcast clouds
400,Baghdad,IQ,33.3406,44.4009,57.11,82,0,6.91,clear sky
401,Rafaela,AR,-31.2503,-61.4867,91.98,12,35,1.01,scattered clouds
402,Nortelandia,BR,-14.4547,-56.8028,91.51,34,40,9.06,scattered clouds
403,Ballina,AU,-28.8667,153.5667,80.78,81,36,12.08,scattered clouds
404,Padang,ID,-0.9492,100.3543,75.2,87,100,3.78,light rain
405,Vila Velha,BR,-20.3297,-40.2925,75.15,83,40,11.5,scattered clouds
406,Jamtara,IN,23.95,86.8,60.87,46,19,7.58,few clouds
407,Akhmim,EG,26.5622,31.745,64.6,41,0,5.61,clear sky
408,Ardesen,TR,41.1911,40.9875,64.42,60,72,10.96,broken clouds
409,Tilichiki,RU,60.4667,166.1,-5.13,99,84,8.21,broken clouds
410,Asyut,EG,27.181,31.1837,62.78,44,0,6.44,clear sky
411,Fredericksburg,US,38.3032,-77.4605,49.35,39,0,10.36,clear sky
412,Sindor,RU,62.8629,51.8905,14.34,90,79,9.44,broken clouds
413,Sangar,RU,63.9242,127.4739,-17.32,95,92,5.06,overcast clouds
414,Broken Hill,AU,-31.95,141.4333,58.5,48,2,17.34,clear sky
415,Abha,SA,18.2164,42.5053,58.82,67,0,0.0,clear sky
416,Ust-Ilimsk,RU,58.0006,102.6619,-2.31,99,66,3.89,broken clouds
417,Ixtapa,MX,20.7,-105.2,79.23,73,75,9.22,broken clouds
418,Hanna,CA,51.6334,-111.9018,24.15,70,51,9.15,broken clouds
419,Aswan,EG,24.0934,32.907,69.1,26,0,6.91,clear sky
420,Nattarasankottai,IN,9.8667,78.5667,70.81,80,100,7.36,overcast clouds
421,Udaipur,IN,24.5712,73.6918,60.67,43,0,4.74,clear sky
422,Louros,GR,39.1628,20.7519,69.66,79,67,5.53,broken clouds
423,Cukai,MY,4.25,103.4167,78.01,90,100,3.65,overcast clouds
424,Kodino,RU,63.7198,39.6447,15.1,97,68,3.15,broken clouds
425,Iquitos,PE,-3.7481,-73.2472,91.44,55,40,3.44,scattered clouds
426,Verkhnyaya Inta,RU,65.9811,60.3094,21.42,95,100,12.19,light snow
427,Longyearbyen,SJ,78.2186,15.6401,39.04,87,75,25.32,light intensity drizzle rain
428,Guerrero Negro,MX,27.9769,-114.0611,71.1,30,0,5.57,clear sky
429,Zatoka,UA,46.0725,30.4654,47.95,71,84,8.77,broken clouds
430,Barcelos,PT,41.5388,-8.6151,53.74,92,100,2.13,overcast clouds
431,Tra Vinh,VN,9.9347,106.3453,73.11,96,100,4.14,overcast clouds
432,Lyubokhna,RU,53.5033,34.3885,25.16,98,99,3.96,overcast clouds
433,Caravelas,BR,-17.7125,-39.2481,73.18,86,100,7.7,overcast clouds
434,Vysoke Myto,CZ,49.9532,16.1617,29.48,88,19,1.28,few clouds
435,Kiunga,PG,-6.1219,141.2906,74.7,99,100,1.61,overcast clouds
436,Penzance,GB,50.1186,-5.5371,48.88,89,100,27.0,overcast clouds
437,Mount Isa,AU,-20.7333,139.5,74.97,94,75,3.44,broken clouds
438,Novoilinsk,RU,51.6829,108.7143,1.2,98,39,1.48,scattered clouds
439,Puerto Escondido,MX,15.85,-97.0667,86.83,58,20,8.05,few clouds
440,Doembang Nangbuat,TH,14.8333,100.1,73.94,95,98,5.61,overcast clouds
441,Tarata,BO,-17.6167,-66.0167,76.42,55,100,5.44,overcast clouds
442,Bondo,CD,3.8146,23.6866,72.16,80,100,0.22,overcast clouds
443,Cidreira,BR,-30.1811,-50.2056,70.18,77,7,25.14,clear sky
444,Filingue,NE,14.3521,3.3168,78.89,17,89,8.41,overcast clouds
445,Beloha,MG,-25.1667,45.05,72.09,73,1,4.56,clear sky
446,Cap Malheureux,MU,-19.9842,57.6142,69.48,72,0,4.0,clear sky
447,Balkhash,KZ,46.844,74.9804,33.4,75,100,2.28,overcast clouds
448,Harrismith,ZA,-28.2728,29.1295,50.83,86,96,8.37,overcast clouds
449,Abu Zabad,SD,12.35,29.25,69.91,19,6,9.62,clear sky
450,Iwanai,JP,42.9744,140.5089,38.86,93,98,6.08,overcast clouds
451,Amapa,BR,1.0,-52.0,79.56,56,13,1.54,few clouds
452,Sao Felix Do Xingu,BR,-6.6447,-51.995,72.63,97,100,1.63,overcast clouds
453,Yaan,NG,7.3833,8.5667,82.65,34,97,3.44,overcast clouds
454,Myitkyina,MM,25.3833,97.4,52.21,60,31,2.68,scattered clouds
455,Mopipi,BW,-21.1833,24.8833,87.28,23,26,2.51,scattered clouds
456,Sibu,MY,2.3,111.8167,73.71,94,40,5.01,scattered clouds
457,Souillac,MU,-20.5167,57.5167,70.18,83,20,3.44,few clouds
458,Kasongo-Lunda,CD,-6.4667,16.8167,70.48,96,100,1.68,overcast clouds
459,Elko,US,41.0002,-115.5012,26.62,55,0,3.0,clear sky
460,Ornskoldsvik,SE,63.2909,18.7153,27.55,100,100,5.75,overcast clouds
461,Along,IN,28.1667,94.7667,52.63,77,1,1.59,clear sky
462,Turayf,SA,31.6725,38.6637,50.25,87,0,4.61,clear sky
463,Zeya,RU,53.75,127.2667,22.82,96,100,4.16,snow
464,Grajau,BR,-5.8194,-46.1386,72.48,97,100,3.22,overcast clouds
465,San Ramon,US,37.7799,-121.978,64.71,35,0,12.66,clear sky
466,Necochea,AR,-38.5473,-58.7368,70.25,78,27,10.49,scattered clouds
467,Kozelsk,RU,54.0375,35.7716,25.95,96,100,5.3,light snow
468,Lamas,PE,-6.4167,-76.5333,77.47,53,28,1.83,scattered clouds
469,Navalmoral De La Mata,ES,39.8916,-5.5406,50.95,71,93,2.77,overcast clouds
470,Aksu,CN,41.1231,80.2644,35.87,37,95,1.68,overcast clouds
471,Gat,IL,31.61,34.7642,68.4,43,0,7.78,clear sky
472,Sao Filipe,CV,14.8961,-24.4956,77.43,67,90,16.49,overcast clouds
473,Frontera,MX,26.9333,-101.45,44.35,100,100,9.22,drizzle
474,Nathdwara,IN,24.9333,73.8167,61.16,42,0,3.67,clear sky
475,Verkhoyansk,RU,67.5447,133.385,-30.66,100,93,0.85,overcast clouds
476,Bilibino,RU,68.0546,166.4372,-17.82,100,100,1.16,overcast clouds
477,Ledyard,US,41.4398,-72.0142,39.09,54,40,11.5,scattered clouds
478,Port Hawkesbury,CA,45.6169,-61.3485,38.79,72,0,4.61,clear sky
479,Cangzhou,CN,38.3167,116.8667,47.37,77,41,3.31,scattered clouds
480,Los Llanos De Aridane,ES,28.6585,-17.9182,65.95,70,40,18.01,scattered clouds
481,Kushmurun,KZ,52.4503,64.6311,9.7,93,62,8.55,broken clouds
482,Kintampo,GH,8.0563,-1.7306,77.36,56,70,4.85,broken clouds
483,Dzhebariki-Khaya,RU,62.2167,135.8,-3.51,99,98,3.83,overcast clouds
484,Misratah,LY,32.3754,15.0925,74.84,39,99,11.3,overcast clouds
485,Kattivakkam,IN,13.2167,80.3167,75.29,76,100,12.17,overcast clouds
486,Terney,RU,45.0503,136.6092,34.05,89,100,2.42,overcast clouds
487,Pokhara,NP,28.2333,83.9833,59.36,42,0,5.59,clear sky
488,Bolshoye Nagatkino,RU,54.5196,47.9679,22.78,92,97,11.18,overcast clouds
489,Ulaangom,MN,49.9811,92.0667,8.2,81,53,4.72,broken clouds
490,Jacksonville,US,30.3322,-81.6556,61.02,56,75,9.22,broken clouds
491,Enshi,CN,30.3,109.4833,51.44,96,3,0.56,clear sky
492,Sabang,ID,5.8933,95.3214,81.03,78,100,14.61,overcast clouds
493,Wyszkow,PL,52.5928,21.4584,27.95,83,83,8.19,broken clouds
494,Surat,IN,21.1667,72.8333,67.53,35,0,7.09,clear sky
495,Togur,RU,58.3631,82.8265,-3.64,89,100,12.08,overcast clouds
496,Vavozh,RU,56.7751,51.931,13.82,85,6,5.3,clear sky
497,Arman,RU,59.7,150.1667,-2.22,80,50,6.33,scattered clouds
498,Saint Stephen,GB,50.3333,-4.9,48.47,93,75,17.27,light rain
499,Rincon De La Victoria,ES,36.7172,-4.2758,60.85,54,32,11.34,scattered clouds
500,Kontagora,NG,10.3999,5.4695,75.47,29,98,4.61,overcast clouds
501,Kibre Mengist,ET,5.8833,38.9833,54.91,84,26,2.04,scattered clouds
502,Ewa Beach,US,21.3156,-158.0072,84.15,62,40,18.41,scattered clouds
503,San Quintin,MX,30.4833,-115.95,65.84,41,0,8.19,clear sky
504,Amazar,RU,53.858,120.875,5.54,89,99,5.1,overcast clouds
505,Minab,IR,27.1467,57.0801,77.02,73,100,2.57,overcast clouds
506,Damietta,EG,31.4165,31.8133,69.69,64,0,11.88,clear sky
507,Mayor Pablo Lagerenza,PY,-19.9309,-60.7718,97.23,22,0,6.55,clear sky
508,Gigmoto,PH,13.7796,124.39,78.78,87,98,5.41,overcast clouds
509,Madimba,TZ,-10.4,40.3333,76.44,82,69,5.93,broken clouds
510,Pervomayskiy,RU,53.2485,40.2871,29.21,97,100,10.87,snow
511,Harper,LR,4.375,-7.7169,72.55,83,69,8.19,light rain
512,Gladstone,AU,-23.85,151.25,78.73,73,100,9.22,overcast clouds
513,Odweyne,SO,9.4092,45.064,70.16,53,65,4.27,broken clouds
514,Mitzic,GA,0.7821,11.549,69.42,97,100,2.93,light rain
515,Presidencia Roque Saenz Pena,AR,-26.7852,-60.4388,95.68,21,31,9.86,scattered clouds
516,Setermoen,NO,68.861,18.3486,26.44,53,0,7.54,clear sky
517,Mao,ES,39.8885,4.2658,52.36,82,40,9.22,scattered clouds
518,Rawson,AR,-43.3002,-65.1023,68.29,30,0,20.71,clear sky
519,Pozo Colorado,PY,-23.4923,-58.7972,91.54,30,32,12.55,scattered clouds
520,Olafsvik,IS,64.8945,-23.7142,43.11,88,100,22.24,overcast clouds
521,Irbeyskoye,RU,55.6428,95.4522,10.38,91,96,3.98,overcast clouds
522,Luau,AO,-10.7073,22.2247,63.91,96,77,3.69,broken clouds
523,Oksovskiy,RU,62.6062,39.8984,15.1,96,43,1.88,scattered clouds
524,Port Hedland,AU,-20.3167,118.5667,79.72,43,99,9.62,light rain
525,Port Moresby,PG,-9.4431,147.1797,80.02,78,20,5.75,few clouds
526,Tarakan,ID,3.3,117.6333,78.3,94,40,3.44,scattered clouds
527,Ilawa,PL,53.596,19.5685,25.79,87,100,10.27,overcast clouds
528,Lunavada,IN,23.1333,73.6167,64.65,40,0,5.91,clear sky
529,Yarmouth,US,41.7057,-70.2286,43.0,63,75,16.11,broken clouds
530,Roquetas De Mar,ES,36.7642,-2.6148,62.62,38,92,0.65,overcast clouds
531,Vao,NC,-22.6667,167.4833,72.61,71,58,11.86,broken clouds
532,Kavaratti,IN,10.5669,72.642,80.37,57,11,2.64,few clouds
533,Tallahassee,US,30.4383,-84.2807,57.09,53,100,4.52,overcast clouds
534,Kenai,US,60.5544,-151.2583,35.15,75,75,14.97,broken clouds
535,Hope,US,33.6671,-93.5916,44.65,48,57,5.35,broken clouds
536,Erdenet,MN,49.0333,104.0833,3.69,97,41,3.53,scattered clouds
537,Springbok,ZA,-29.6643,17.8865,56.16,50,64,4.65,broken clouds
538,Oranjemund,NA,-28.55,16.4333,60.33,80,86,19.35,overcast clouds
539,Beyneu,KZ,45.3167,55.2,42.01,81,16,4.63,few clouds
540,Saint-Pierre,RE,-21.3393,55.4781,71.28,68,0,4.61,clear sky
541,Yeppoon,AU,-23.1333,150.7333,80.38,72,100,11.68,overcast clouds
542,Cariati,IT,39.4922,16.9594,66.88,70,99,6.13,overcast clouds
543,Chokwe,MZ,-24.5333,32.9833,75.13,82,90,16.24,overcast clouds
544,Itoman,JP,26.1247,127.6694,75.22,83,40,8.05,scattered clouds
545,Acarau,BR,-2.8856,-40.12,79.74,75,72,17.67,broken clouds
546,Lesnoy,RU,57.6198,63.0784,6.49,91,86,6.31,overcast clouds
547,Pitimbu,BR,-7.4706,-34.8086,79.39,77,97,10.2,overcast clouds
548,Tessalit,ML,20.1986,1.0114,72.45,12,100,10.65,overcast clouds
549,Santa Isabel Do Rio Negro,BR,-0.4139,-65.0192,75.52,95,99,2.57,moderate rain
550,Ilinskiy,RU,55.619,38.1182,28.11,93,100,11.18,overcast clouds
551,Tautira,PF,-17.7333,-149.15,74.43,90,100,10.07,light rain
552,Balloch,GB,56.0,-4.5833,47.17,83,100,10.36,moderate rain
553,Ojinaga,MX,29.5667,-104.4167,48.58,71,100,14.97,overcast clouds
554,Guadalupe Y Calvo,MX,26.1,-106.9667,57.94,37,23,10.47,few clouds
555,Mabaruma,GY,8.2,-59.7833,74.07,95,19,3.31,light rain
556,Antofagasta,CL,-23.65,-70.4,63.68,79,9,8.21,clear sky
557,Ivybridge,GB,50.3904,-3.9191,48.9,90,100,14.56,overcast clouds
558,Altamira,BR,-3.2033,-52.2064,82.49,89,0,0.0,clear sky
559,Skibbereen,IE,51.55,-9.2667,51.12,77,3,18.1,clear sky
560,Kalengwa,ZM,-13.4659,25.0027,65.86,51,23,3.83,few clouds
561,Aleksandrovskoye,RU,44.7142,43.0008,53.71,65,100,2.84,overcast clouds
562,El Tocuyo,VE,9.7873,-69.7937,75.51,84,73,3.47,broken clouds
563,Ati,TD,13.2154,18.3353,78.39,18,8,10.6,clear sky
564,Saint-Joseph,RE,-21.3667,55.6167,70.18,79,13,5.82,few clouds
565,Buraydah,SA,26.326,43.975,61.25,71,17,13.58,few clouds
566,Falmouth,GB,50.1544,-5.0711,49.1,100,100,14.97,moderate rain
567,Yumen,CN,40.2833,97.2,36.66,26,100,14.56,overcast clouds
568,Moerai,PF,-22.4333,-151.3333,72.54,68,61,19.39,broken clouds
569,Baijiantan,CN,45.6333,85.1833,32.32,60,37,5.93,scattered clouds
570,Tambura,SS,5.6,27.4667,76.44,58,97,0.69,overcast clouds
571,Greystones,IE,53.1408,-6.0631,49.91,96,100,8.97,overcast clouds
572,Kapit,MY,2.0167,112.9333,73.15,99,100,1.52,overcast clouds
573,Ginda,IN,30.6945,78.4932,46.62,39,43,6.89,scattered clouds
574,La Rioja,ES,42.25,-2.5,38.98,83,95,5.46,overcast clouds
575,Kpandae,GH,8.4689,-0.0113,80.98,52,99,3.33,overcast clouds
576,Alta Floresta,BR,-9.8756,-56.0861,73.42,89,70,5.12,broken clouds
577,Simbahan,PH,6.3032,120.5836,82.96,79,100,15.93,overcast clouds
578,Zamora,EC,-4.0692,-78.9567,77.29,80,67,2.42,light rain
579,Huambo,AO,-12.7761,15.7392,63.59,69,34,3.02,scattered clouds
580,Barabinsk,RU,55.3571,78.357,2.37,88,96,11.23,overcast clouds
581,Rio Grande,BR,-32.035,-52.0986,78.91,76,43,22.75,scattered clouds
582,Whyalla,AU,-33.0333,137.5833,59.59,56,4,19.51,clear sky
583,Mecca,SA,21.4267,39.8261,76.24,66,5,6.15,clear sky
584,Hambantota,LK,6.1241,81.1185,75.54,100,20,3.44,few clouds
585,Minsk,BY,53.9,27.5667,15.55,96,58,7.34,broken clouds
586,Salym,RU,60.0625,71.4789,8.08,92,100,10.89,overcast clouds
587,Maunabo,PR,18.0072,-65.8993,82.24,84,44,13.2,scattered clouds
588,Petropavlovsk-Kamchatskiy,RU,53.0452,158.6483,5.59,66,0,8.95,clear sky
589,Makakilo City,US,21.3469,-158.0858,82.72,62,75,18.41,broken clouds
590,Tala,EG,30.6803,30.9429,61.21,76,0,7.0,clear sky
591,Zhigansk,RU,66.7697,123.3711,-7.62,97,100,14.63,overcast clouds
592,Kindu,CD,-2.95,25.95,67.06,94,51,1.21,broken clouds
593,Amiens,FR,49.9,2.3,46.78,92,97,5.28,overcast clouds
594,Banjar,ID,-8.19,114.9675,76.96,90,100,2.37,overcast clouds
595,Saint Anthony,US,45.0205,-93.218,17.55,60,75,20.71,broken clouds
596,Zhireken,RU,52.8249,117.3076,3.65,92,100,3.11,overcast clouds
597,Jalu,LY,29.0331,21.5482,66.29,23,16,9.75,few clouds
598,Atagay,RU,55.1033,99.3875,8.8,93,16,3.96,few clouds
599,Tamandare,BR,-8.7597,-35.1047,77.36,80,83,8.95,broken clouds
600,Roura,GF,4.7263,-52.3274,80.51,83,0,3.44,clear sky
601,Nata,PA,8.3333,-80.5167,77.4,91,100,3.47,moderate rain
602,Severobaykalsk,RU,55.65,109.3167,4.28,75,16,5.55,few clouds
603,Guanica,PR,17.9716,-66.908,83.12,79,64,8.23,broken clouds
604,Traverse City,US,44.7631,-85.6206,23.61,86,100,17.27,heavy snow
605,Suntar,RU,62.1444,117.6319,-5.98,97,92,4.9,overcast clouds
606,Akdepe,TM,42.0551,59.3788,37.49,69,10,3.24,clear sky
607,Labytnangi,RU,66.6572,66.4183,-7.92,92,18,2.51,few clouds
608,Kailua,US,21.4022,-157.7394,84.18,73,17,8.01,few clouds
609,Punto Fijo,VE,11.6956,-70.1996,81.61,77,24,23.8,few clouds
610,Goure,NE,13.9835,10.2704,71.17,21,14,8.97,few clouds
611,Pa Sang,TH,18.5262,98.9394,74.86,96,99,1.03,overcast clouds
612,General Roca,AR,-39.0333,-67.5833,78.62,13,100,26.87,overcast clouds
613,Mosquera,CO,4.7059,-74.2302,60.89,72,75,9.22,thunderstorm
614,Gamba,GA,-2.65,10.0,76.73,84,97,8.25,light rain
615,Agvali,RU,42.5385,46.1197,47.48,72,3,5.48,clear sky
616,Huarmey,PE,-10.0681,-78.1522,66.78,80,100,8.55,overcast clouds
617,Polunochnoye,RU,60.8697,60.4153,16.07,84,94,9.42,overcast clouds
618,Nouadhibou,MR,20.931,-17.0347,69.78,64,0,20.71,sand
619,Krasnomayskiy,RU,57.6194,34.4099,22.19,92,100,9.35,overcast clouds
620,Beringovskiy,RU,63.05,179.3167,9.5,89,100,17.69,overcast clouds
621,Tres Arroyos,AR,-38.3739,-60.2798,80.2,47,21,9.1,few clouds
622,Kargat,RU,55.1956,80.2811,6.19,88,100,14.81,overcast clouds
623,Bundaberg,AU,-24.85,152.35,78.22,80,64,8.01,broken clouds
624,Samsun,TR,41.25,36.3333,59.99,86,0,3.44,clear sky
625,Uray,RU,60.1247,64.7758,12.11,87,84,10.94,broken clouds
626,Kyzyl,RU,51.7,94.45,-0.06,96,100,0.43,overcast clouds
627,Ekhabi,RU,53.5102,142.9671,25.61,85,100,13.0,overcast clouds
628,Datong,CN,40.0936,113.2914,37.11,46,97,3.0,overcast clouds
629,Fort Frances,CA,48.5999,-93.4003,11.16,67,75,16.11,broken clouds
630,Chara,RU,56.9064,118.2631,0.99,91,100,0.45,overcast clouds
631,Amahai,ID,-3.3333,128.9167,79.16,81,100,2.8,overcast clouds
632,Pangnirtung,CA,66.1451,-65.7125,-2.54,86,74,4.25,broken clouds
633,Kholodnyy,RU,62.7167,147.95,-20.31,94,77,1.92,broken clouds
634,Bac Lieu,VN,9.285,105.7244,74.48,91,100,7.87,overcast clouds
635,Kashi,CN,39.4547,75.9797,45.61,29,0,11.18,clear sky
636,Leh,IN,34.1667,77.5833,22.96,93,99,5.08,light snow
637,Lufilufi,WS,-13.8745,-171.5986,89.38,75,19,7.29,light rain
638,Juneau,US,58.3019,-134.4197,36.1,97,100,13.8,light rain
639,Evensk,RU,61.95,159.2333,-7.15,78,84,7.52,broken clouds
640,Grand Gaube,MU,-20.0064,57.6608,70.2,72,0,3.0,clear sky
641,Salvador,SV,13.8333,-88.9167,84.06,73,17,1.79,few clouds
642,Boshkengash,TJ,38.4661,68.8053,44.94,93,40,4.47,scattered clouds
643,Proletariy,RU,58.4342,31.7046,23.54,87,100,9.71,overcast clouds
644,Dolores,AR,-36.3132,-57.6792,88.54,28,98,11.16,overcast clouds
645,Birsk,RU,55.4211,55.5428,11.44,88,9,4.38,clear sky
646,Mossoro,BR,-5.1875,-37.3442,84.15,65,20,18.41,few clouds
647,Aktash,RU,50.3,87.7333,3.88,84,100,4.85,overcast clouds
648,Bone,DE,51.9669,12.1396,32.9,81,85,6.02,overcast clouds
649,Taksimo,RU,56.3444,114.8794,-6.21,88,76,2.64,broken clouds
650,Tomatlan,MX,19.9333,-105.25,84.18,59,97,5.28,overcast clouds
651,Kemijarvi,FI,66.7131,27.4306,24.24,93,100,3.22,overcast clouds
652,Kijang,KR,35.2442,129.2139,55.13,71,82,7.74,broken clouds
653,Northam,GB,51.0333,-4.2167,47.25,91,100,17.58,overcast clouds
654,De-Kastri,RU,51.4667,140.7833,34.99,84,100,18.7,overcast clouds
655,Rosarito,MX,32.3333,-117.0333,77.49,24,0,8.77,clear sky
656,Nigde,TR,37.8333,34.75,43.61,81,0,4.43,clear sky
657,Tahe,CN,52.3333,124.7333,17.15,90,100,8.34,overcast clouds
658,Cabedelo,BR,-6.9811,-34.8339,79.47,78,93,11.23,overcast clouds
659,Olinda,BR,-8.0089,-34.8553,80.33,69,40,6.91,scattered clouds
660,Natchitoches,US,31.7668,-93.1335,46.38,66,0,8.05,clear sky
661,Tevaitoa,PF,-16.7833,-151.5,77.7,82,48,9.78,light rain
662,Ende,ID,-8.8432,121.6623,77.83,88,100,0.92,light rain
663,Vigrestad,NO,58.5667,5.7,29.25,53,0,8.5,clear sky
664,Robertsport,LR,6.7533,-11.3686,80.49,78,100,11.1,light rain
665,Khokhlovo,RU,59.1492,37.3998,20.07,81,53,9.19,broken clouds
666,Caraballeda,VE,10.6112,-66.8522,85.37,75,100,10.56,overcast clouds
667,Timizart,DZ,36.8,4.2667,50.0,80,88,8.75,moderate rain
668,Chase,CA,50.8165,-119.6857,32.88,77,76,2.75,broken clouds
669,Pundaguitan,PH,6.3711,126.1689,82.13,76,100,9.62,overcast clouds
670,Tiznit,MA,29.5833,-9.5,64.2,45,4,3.98,clear sky
671,Vlissingen,NL,51.4425,3.5736,39.15,94,100,6.91,mist
672,Fomboni,KM,-12.28,43.7425,79.25,78,0,14.47,clear sky
673,Awash,ET,8.9833,40.1667,70.2,28,11,0.51,few clouds
674,Mantua,IT,45.1667,10.7833,49.98,88,100,2.37,overcast clouds
675,Nikolayevka,RU,53.1257,47.2041,33.46,95,100,9.26,overcast clouds
676,Micheweni,TZ,-4.9667,39.8333,77.22,84,92,1.88,light rain
677,Aborlan,PH,9.4352,118.5492,77.07,91,100,3.09,overcast clouds
678,Pontianak,ID,-0.0333,109.3333,75.18,100,20,2.3,few clouds
679,Dunedin,NZ,-45.8742,170.5036,53.8,94,100,2.33,overcast clouds
680,Anadyr,RU,64.75,177.4833,-5.3,77,0,11.18,clear sky
681,Jackson,US,42.4165,-122.8345,57.74,26,0,5.75,clear sky
682,Guinguineo,SN,14.2667,-15.95,76.82,38,0,0.0,clear sky
683,Kamenka,RU,51.3223,42.7678,36.68,98,100,10.11,overcast clouds
684,San Jeronimo,PE,-11.9472,-75.2829,61.16,50,98,7.78,overcast clouds
685,Bud,US,39.447,-86.1758,35.55,44,25,17.9,scattered clouds
686,Kualakapuas,ID,-3.0091,114.3876,73.09,99,100,0.63,overcast clouds
687,Turukhansk,RU,65.8167,87.9833,-3.69,88,100,9.04,overcast clouds
688,Brownsville,US,25.9018,-97.4975,50.09,95,100,21.85,overcast clouds
689,Lubumbashi,CD,-11.6609,27.4794,64.42,85,81,3.24,broken clouds
690,Lasa,IT,46.6166,10.7002,41.88,87,100,6.89,overcast clouds
691,Punta Alta,AR,-38.8759,-62.0736,86.54,37,49,2.73,scattered clouds
692,Floro,NO,61.5996,5.0328,31.96,86,1,6.91,clear sky
693,Kiama,AU,-34.6833,150.8667,75.25,52,0,8.01,clear sky
694,Lentekhi,GE,42.7856,42.7261,50.77,85,96,4.99,overcast clouds
695,Hovd,MN,48.0056,91.6419,15.58,59,4,2.89,clear sky
696,Beira,MZ,-19.8436,34.8389,77.09,94,0,3.44,clear sky
697,Pangai,TO,-19.8,-174.35,77.77,69,1,6.31,clear sky
698,Zig,US,40.127,-92.7663,29.37,48,100,14.97,overcast clouds
699,Pascagoula,US,30.3658,-88.5561,49.55,89,100,3.44,light rain
700,Samarai,PG,-10.6167,150.6667,84.4,74,87,11.61,overcast clouds
701,Hualmay,PE,-11.0964,-77.6139,67.55,76,77,8.66,broken clouds
702,Xai-Xai,MZ,-25.0519,33.6442,75.38,87,78,22.39,broken clouds
703,Tanga,TZ,-5.0667,39.1,75.52,89,96,3.87,light rain
704,Viedma,AR,-40.8135,-62.9967,69.6,39,73,17.47,broken clouds
705,Rocha,UY,-34.4833,-54.3333,70.39,79,93,12.06,overcast clouds
706,Isla Mujeres,MX,21.2311,-86.731,77.16,82,100,12.95,light rain
707,Ulladulla,AU,-35.35,150.4667,70.14,48,0,12.64,clear sky
708,Gondanglegi,ID,-7.7479,112.0132,74.28,94,64,2.98,broken clouds
